{
  "metadata": {
    "version": "2.3.0",
    "last_updated": "2026-02-09",
    "project": "Scavengr Curation",
    "author": "Calvin",
    "description": "Curated internal logic for location-based stability and comfort assessment.",
    "scoring_definitions": {
      "comfy_score": "Physical comfort, seating quality, and atmospheric ease.",
      "stability_index": "Predictability of the vibe and consistency of the experience.",
      "boundary_level": "Degree of social autonomy and 'aloof friendliness' of the staff/environment.",
      "food_adventure": "Culinary novelty, quality of ingredients, and flavor impact."
    }
  },
  "curated_list": [
    {
      "id": "restaurant-us-90026-superette",
      "name": "Superette",
      "type": "restaurant",
      "address": "1001 Echo Park Ave",
      "city": "Los Angeles",
      "state": "CA",
      "zip_code": "90026",
      "country": "US",
      "cost": "$$",
      "coords": { "lat": 34.0772, "lng": -118.2562 },
      "description": "Echo Park's premiere destination for seasonal California deli fare and curated wine.",
      "fact": "The space is designed as a 'new school' general store, emphasizing community-sourced goods.",
      "metrics": { "comfy_score": { "val": 8, "note": "Bright and airy." }, "stability_index": { "val": 9, "note": "Consistent quality." }, "boundary_level": { "val": 9, "note": "Professional distance." }, "food_adventure": { "val": 7, "note": "Refined basics." } }
    },
    {
      "id": "restaurant-us-90232-go-go-bird",
      "name": "Go Go Bird",
      "type": "restaurant",
      "address": "9355 Culver Blvd",
      "city": "Culver City",
      "state": "CA",
      "zip_code": "90232",
      "country": "US",
      "cost": "$$",
      "coords": { "lat": 34.0242, "lng": -118.3951 },
      "description": "Tokyo-Nashville hybrid fried chicken with a distinct koji-marinated crust.",
      "fact": "Chef Brandon Kida developed the recipe as a tribute to both his Japanese heritage and LA's chicken scene.",
      "metrics": { "comfy_score": { "val": 7, "note": "Plaza seating." }, "stability_index": { "val": 9, "note": "Technical precision." }, "boundary_level": { "val": 8, "note": "Direct efficiency." }, "food_adventure": { "val": 10, "note": "Unique flavor profile." } }
    },
    {
      "id": "restaurant-us-90039-goldburger",
      "name": "Goldburger",
      "type": "restaurant",
      "address": "1820 N Vermont Ave",
      "city": "Los Angeles",
      "state": "CA",
      "zip_code": "90027",
      "country": "US",
      "cost": "$$",
      "coords": { "lat": 34.1039, "lng": -118.2917 },
      "description": "High-tier smash burgers focused on quality beef and thin-sliced onions.",
      "fact": "Started as a pop-up in 2018 before gaining a cult following and opening permanent shops.",
      "metrics": { "comfy_score": { "val": 6, "note": "Small/Active." }, "stability_index": { "val": 9, "note": "Consistently great." }, "boundary_level": { "val": 8, "note": "Bustling vibe." }, "food_adventure": { "val": 8, "note": "Elite smash style." } }
    },
    {
      "id": "restaurant-us-90033-chuys-tacos-dorados",
      "name": "Chuy's Tacos Dorados",
      "type": "restaurant",
      "address": "1335 Willow St",
      "city": "Los Angeles",
      "state": "CA",
      "zip_code": "90013",
      "country": "US",
      "cost": "$",
      "coords": { "lat": 34.0378, "lng": -118.2323 },
      "description": "Specialists in hard-shell tacos (dorados) served with fresh salsa and shredded lettuce.",
      "fact": "A standout in the Arts District/Boyle Heights area for traditional crunch-focused Mexican fare.",
      "metrics": { "comfy_score": { "val": 5, "note": "Industrial/Street." }, "stability_index": { "val": 10, "note": "Reliable crunch." }, "boundary_level": { "val": 9, "note": "Quick turnaround." }, "food_adventure": { "val": 8, "note": "Specific niche excellence." } }
    },
    {
      "id": "restaurant-us-90048-bandit-chow-mein",
      "name": "Bandit Chow Mein",
      "type": "restaurant",
      "address": "Multiple (Check Schedule)",
      "city": "Los Angeles",
      "state": "CA",
      "zip_code": "90048",
      "country": "US",
      "cost": "$$",
      "coords": { "lat": 34.0736, "lng": -118.3763 },
      "description": "High-octane, wok-fired chow mein noodles with bold garlic and soy flavors.",
      "fact": "The 'Bandit' name refers to the elusive nature of their pop-up schedule and rapid sell-outs.",
      "metrics": { "comfy_score": { "val": 4, "note": "Pop-up/Sidewalk." }, "stability_index": { "val": 7, "note": "High quality, varied timing." }, "boundary_level": { "val": 9, "note": "Street-level interaction." }, "food_adventure": { "val": 9, "note": "Elite wok-hei flavor." } }
    },
    {
      "id": "restaurant-us-90026-lowboy",
      "name": "Lowboy",
      "type": "restaurant",
      "address": "1540 Sunset Blvd",
      "city": "Los Angeles",
      "state": "CA",
      "zip_code": "90026",
      "country": "US",
      "cost": "$$",
      "coords": { "lat": 34.0774, "lng": -118.2585 },
      "description": "A refined neighborhood bar serving one of Echo Park's most famous burgers.",
      "fact": "Owned by the team behind Wolf & Crane, it pays homage to classic American tavern culture.",
      "metrics": { "comfy_score": { "val": 8, "note": "Cozy dimly lit booth." }, "stability_index": { "val": 9, "note": "Very consistent bar-top." }, "boundary_level": { "val": 8, "note": "Social but respectful." }, "food_adventure": { "val": 7, "note": "Solid burger focus." } }
    },
    {
      "id": "restaurant-us-90013-kogibbq-truck",
      "name": "Kogi BBQ Truck",
      "type": "restaurant",
      "address": "Various Locations",
      "city": "Los Angeles",
      "state": "CA",
      "zip_code": "90013",
      "country": "US",
      "cost": "$",
      "coords": { "lat": 34.0415, "lng": -118.2411 },
      "description": "The truck that sparked the modern fusion movement with Korean short rib tacos.",
      "fact": "Founder Roy Choi is credited with inventing the 'Twitter food truck' model in 2008.",
      "metrics": { "comfy_score": { "val": 2, "note": "Standing/Sidewalk." }, "stability_index": { "val": 9, "note": "The original standard." }, "boundary_level": { "val": 10, "note": "Total anonymity." }, "food_adventure": { "val": 10, "note": "Historically significant." } }
    },
    {
      "id": "restaurant-us-90017-ritas-deluxe",
      "name": "Rita's Deluxe",
      "type": "restaurant",
      "address": "724 S Figueroa St",
      "city": "Los Angeles",
      "state": "CA",
      "zip_code": "90017",
      "country": "US",
      "cost": "$$",
      "coords": { "lat": 34.0494, "lng": -118.2599 },
      "description": "A nostalgic sandwich and burger shop tucked into DTLA's corporate corridor.",
      "fact": "It’s a secret weapon for those working in the Financial District who want high-quality deli fare.",
      "metrics": { "comfy_score": { "val": 6, "note": "Fast-paced patio." }, "stability_index": { "val": 9, "note": "Lunchtime savior." }, "boundary_level": { "val": 9, "note": "Efficient service." }, "food_adventure": { "val": 8, "note": "Surprising quality." } }
    },
    {
      "id": "restaurant-us-90013-tacos-el-comelon",
      "name": "Tacos El Comelon",
      "type": "restaurant",
      "address": "1515 E 1st St",
      "city": "Los Angeles",
      "state": "CA",
      "zip_code": "90033",
      "country": "US",
      "cost": "$",
      "coords": { "lat": 34.0478, "lng": -118.2252 },
      "description": "No-frills taco truck known for exceptional meats and handmade tortillas.",
      "fact": "A staple in the Boyle Heights community for authentic, late-night dining.",
      "metrics": { "comfy_score": { "val": 3, "note": "Truck/Street side." }, "stability_index": { "val": 9, "note": "Reliable flavor." }, "boundary_level": { "val": 10, "note": "Street-level autonomy." }, "food_adventure": { "val": 9, "note": "Elite street tacos." } }
    },
    {
      "id": "restaurant-us-90039-pine-and-crane",
      "name": "Pine and Crane",
      "type": "restaurant",
      "address": "1521 Griffith Park Blvd",
      "city": "Los Angeles",
      "state": "CA",
      "zip_code": "90026",
      "country": "US",
      "cost": "$$",
      "coords": { "lat": 34.0906, "lng": -118.2778 },
      "description": "A modern Taiwanese cafe featuring seasonal vegetables from the family farm.",
      "fact": "Owner Vivian Ku sources much of the produce from her parents' farm in the Central Valley.",
      "metrics": { "comfy_score": { "val": 8, "note": "Clean/Minimalist." }, "stability_index": { "val": 10, "note": "Always incredible." }, "boundary_level": { "val": 8, "note": "Professional/Fast." }, "food_adventure": { "val": 9, "note": "Exceptional Taiwanese." } }
    },
    {
      "id": "restaurant-us-90254-bottle-inn",
      "name": "The Bottle Inn",
      "type": "restaurant",
      "address": "26 22nd St",
      "city": "Hermosa Beach",
      "state": "CA",
      "zip_code": "90254",
      "country": "US",
      "cost": "$$$",
      "coords": { "lat": 33.8647, "lng": -118.4002 },
      "description": "A historic beachside Italian spot with a deep wine cellar and classic atmosphere.",
      "fact": "Established in 1972, it has served generations of locals in the South Bay.",
      "metrics": { "comfy_score": { "val": 10, "note": "White tablecloth/Booths." }, "stability_index": { "val": 10, "note": "Decades of proof." }, "boundary_level": { "val": 8, "note": "Traditional service." }, "food_adventure": { "val": 7, "note": "Classic Italian." } }
    },
    {
      "id": "restaurant-us-90232-bang-bang-noodles",
      "name": "Bang Bang Noodles",
      "type": "restaurant",
      "address": "Multiple (Culver City)",
      "city": "Culver City",
      "state": "CA",
      "zip_code": "90232",
      "country": "US",
      "cost": "$$",
      "coords": { "lat": 34.0242, "lng": -118.3951 },
      "description": "Biang Biang style hand-pulled noodles with intense chili oil and cumin flavors.",
      "fact": "Originally a street pop-up, it gained fame for the theatricality of the hand-pulling process.",
      "metrics": { "comfy_score": { "val": 5, "note": "Casual/Counter." }, "stability_index": { "val": 8, "note": "Always spicy/bold." }, "boundary_level": { "val": 9, "note": "Focused on speed." }, "food_adventure": { "val": 10, "note": "Texture heaven." } }
    },
    {
      "id": "restaurant-us-90013-grand-central-market",
      "name": "Grand Central Market",
      "type": "restaurant",
      "address": "317 S Broadway",
      "city": "Los Angeles",
      "state": "CA",
      "zip_code": "90013",
      "country": "US",
      "cost": "$$",
      "coords": { "lat": 34.0507, "lng": -118.2489 },
      "description": "LA's oldest open-air food hall featuring 40+ legacy and new-school vendors.",
      "fact": "The market has been in continuous operation since 1917 and is a City of Los Angeles Landmark.",
      "metrics": { "comfy_score": { "val": 6, "note": "Loud/Bustling." }, "stability_index": { "val": 8, "note": "A reliable food hub." }, "boundary_level": { "val": 5, "note": "High interaction." }, "food_adventure": { "val": 10, "note": "Infinite variety." } }
    },
    {
      "id": "restaurant-us-90015-kitchen-bann",
      "name": "Kitchen Bann",
      "type": "restaurant",
      "address": "1200 S Figueroa St",
      "city": "Los Angeles",
      "state": "CA",
      "zip_code": "90015",
      "country": "US",
      "cost": "$$",
      "coords": { "lat": 34.0416, "lng": -118.2678 },
      "description": "Authentic Korean soul food in the DTLA corridor near Crypto.com Arena.",
      "fact": "Known for bringing high-quality K-Town staples to the downtown sports district.",
      "metrics": { "comfy_score": { "val": 7, "note": "Clean/Modern." }, "stability_index": { "val": 9, "note": "Always solid." }, "boundary_level": { "val": 8, "note": "Polite/Efficient." }, "food_adventure": { "val": 8, "note": "Excellent K-Food." } }
    },
    {
      "id": "restaurant-us-90048-uncle-paulies",
      "name": "Uncle Paulie's",
      "type": "restaurant",
      "address": "8369 Beverly Blvd",
      "city": "Los Angeles",
      "state": "CA",
      "zip_code": "90048",
      "country": "US",
      "cost": "$$",
      "coords": { "lat": 34.0763, "lng": -118.3721 },
      "description": "Classic East Coast style Italian deli serving massive cold cuts and heroes.",
      "fact": "Favored by the streetwear and music community, often featuring high-profile pop-culture merch.",
      "metrics": { "comfy_score": { "val": 6, "note": "Tight deli space." }, "stability_index": { "val": 9, "note": "Deli standard-bearer." }, "boundary_level": { "val": 9, "note": "NY energy." }, "food_adventure": { "val": 8, "note": "Elite sandwiches." } }
    },
    {
      "id": "restaurant-us-90013-sari-sari",
      "name": "Sari Sari Store",
      "type": "restaurant",
      "address": "317 S Broadway",
      "city": "Los Angeles",
      "state": "CA",
      "zip_code": "90013",
      "country": "US",
      "cost": "$$",
      "coords": { "lat": 34.0507, "lng": -118.2489 },
      "description": "A Filipino concept by James Beard nominee Margarita Manzke located inside GCM.",
      "fact": "The name 'Sari Sari' refers to the small convenience stores found in neighborhoods in the Philippines.",
      "metrics": { "comfy_score": { "val": 6, "note": "Counter stools." }, "stability_index": { "val": 10, "note": "Always perfect." }, "boundary_level": { "val": 8, "note": "Social market vibe." }, "food_adventure": { "val": 10, "note": "Transcendental bowls." } }
    },
    {
      "id": "restaurant-us-90014-birdies",
      "name": "Birdies",
      "type": "restaurant",
      "address": "312 W 9th St",
      "city": "Los Angeles",
      "state": "CA",
      "zip_code": "90015",
      "country": "US",
      "cost": "$$",
      "coords": { "lat": 34.0435, "lng": -118.2566 },
      "description": "Artisanal donuts and Nashville-style hot chicken under one roof in DTLA.",
      "fact": "They famously made a $100 donut featuring 24k gold leaf flakes for a charitable promo.",
      "metrics": { "comfy_score": { "val": 7, "note": "Vibrant/Urban." }, "stability_index": { "val": 9, "note": "High-tier fry." }, "boundary_level": { "val": 9, "note": "Fast turnaround." }, "food_adventure": { "val": 8, "note": "Bold pairing." } }
    },
    {
      "id": "restaurant-us-90014-broken-mouth",
      "name": "Broken Mouth",
      "type": "restaurant",
      "address": "718 S Los Angeles St",
      "city": "Los Angeles",
      "state": "CA",
      "zip_code": "90014",
      "country": "US",
      "cost": "$$",
      "coords": { "lat": 34.0438, "lng": -118.2505 },
      "description": "Hawaiian-Korean fusion specializing in plate lunches and 'lee's fried chicken.'",
      "fact": "Won Yelp's #1 place to eat in America in 2023 for its incredibly comforting island flavors.",
      "metrics": { "comfy_score": { "val": 8, "note": "Heartfelt/Cozy." }, "stability_index": { "val": 10, "note": "Absolute consistency." }, "boundary_level": { "val": 9, "note": "Warm but direct." }, "food_adventure": { "val": 9, "note": "Island soul food." } }
    },
    {
      "id": "restaurant-us-90254-ryla",
      "name": "RYLA",
      "type": "restaurant",
      "address": "1220 Hermosa Ave",
      "city": "Hermosa Beach",
      "state": "CA",
      "zip_code": "90254",
      "country": "US",
      "cost": "$$$",
      "coords": { "lat": 33.8617, "lng": -118.3995 },
      "description": "Modern Japanese-fusion by Chef Ray Hayashi, focusing on seasonal South Bay ingredients.",
      "fact": "Named after the couple’s children, the restaurant is a high-design hub for the beach community.",
      "metrics": { "comfy_score": { "val": 10, "note": "Elite coastal design." }, "stability_index": { "val": 10, "note": "Michelin-level quality." }, "boundary_level": { "val": 8, "note": "Professional/Attentive." }, "food_adventure": { "val": 10, "note": "Sophisticated fusion." } }
    },
    {
      "id": "restaurant-us-90048-slab-bbq",
      "name": "Slab BBQ",
      "type": "restaurant",
      "address": "8136 W 3rd St",
      "city": "Los Angeles",
      "state": "CA",
      "zip_code": "90048",
      "country": "US",
      "cost": "$$$",
      "coords": { "lat": 34.0728, "lng": -118.3669 },
      "description": "Central Texas-style barbecue from the team behind the famous H.O.M.E. pop-up.",
      "fact": "Pitmaster Burt Bakman gained legendary status cooking out of his backyard before opening on 3rd St.",
      "metrics": { "comfy_score": { "val": 7, "note": "Modern BBQ hall." }, "stability_index": { "val": 9, "note": "Top-tier brisket." }, "boundary_level": { "val": 8, "note": "Bustling social hub." }, "food_adventure": { "val": 9, "note": "True Texas soul." } }
    },
    {
      "id": "restaurant-us-90014-roots-indian",
      "name": "Roots Indian Bistro",
      "type": "restaurant",
      "address": "727 W 7th St",
      "city": "Los Angeles",
      "state": "CA",
      "zip_code": "90017",
      "country": "US",
      "cost": "$$",
      "coords": { "lat": 34.0485, "lng": -118.2588 },
      "description": "Modern Indian dining in DTLA focusing on bold spices and high-quality presentation.",
      "fact": "Known for its 'progressive' take on traditional curries and innovative cocktail program.",
      "metrics": { "comfy_score": { "val": 9, "note": "Sleek DTLA bistro." }, "stability_index": { "val": 9, "note": "Highly reliable." }, "boundary_level": { "val": 8, "note": "Attentive/Upscale." }, "food_adventure": { "val": 9, "note": "Flavor forward." } }
    },
    {
      "id": "hotel-us-90401-le-meridien-delfina",
      "name": "Le Meridien Delfina",
      "type": "hotel",
      "address": "530 Pico Blvd",
      "city": "Santa Monica",
      "state": "CA",
      "zip_code": "90405",
      "country": "US",
      "cost": "$$$",
      "coords": { "lat": 34.0116, "lng": -118.4876 },
      "description": "A chic, mid-century modern hotel with sweeping views of the Santa Monica coastline.",
      "fact": "The hotel is uniquely situated on a hill, providing sunset views that many oceanfront properties lack.",
      "metrics": { "comfy_score": { "val": 10, "note": "Elite hotel comfort." }, "stability_index": { "val": 9, "note": "Consistent brand." }, "boundary_level": { "val": 10, "note": "Professional distance." }, "food_adventure": { "val": 7, "note": "Upscale hotel basics." } }
    },
    {
      "id": "bar-us-90291-the-mermaid",
      "name": "The Mermaid",
      "type": "bar",
      "address": "428 E 2nd St",
      "city": "Los Angeles",
      "state": "CA",
      "zip_code": "90012",
      "country": "US",
      "cost": "$$",
      "coords": { "lat": 34.0494, "lng": -118.2415 },
      "description": "A tropical-themed bar in Little Tokyo known for strong drinks and a female-centric vibe.",
      "fact": "The bar is inspired by 'the girl with the mermaid hair' and emphasizes safe, inclusive nightlife.",
      "metrics": { "comfy_score": { "val": 8, "note": "Lush/Tropical." }, "stability_index": { "val": 9, "note": "Reliably fun." }, "boundary_level": { "val": 8, "note": "Social/Welcoming." }, "food_adventure": { "val": 8, "note": "Creative cocktails." } }
    },
    {
      "id": "bar-us-90026-little-joy",
      "name": "Little Joy Cocktails",
      "type": "bar",
      "address": "1477 Sunset Blvd",
      "city": "Los Angeles",
      "state": "CA",
      "zip_code": "90026",
      "country": "US",
      "cost": "$$",
      "coords": { "lat": 34.0772, "lng": -118.2575 },
      "description": "An Echo Park landmark dive that has evolved into a stylish cocktail destination.",
      "fact": "A favorite for touring indie musicians and the neighborhood's long-standing artist community.",
      "metrics": { "comfy_score": { "val": 7, "note": "Hip/Atmospheric." }, "stability_index": { "val": 10, "note": "Constant Echo Park." }, "boundary_level": { "val": 9, "note": "Aloof/Cool." }, "food_adventure": { "val": 6, "note": "Solid standards." } }
    },
    {
      "id": "bar-us-90015-cranes-bar",
      "name": "Crane's Bar",
      "type": "bar",
      "address": "810 S Spring St",
      "city": "Los Angeles",
      "state": "CA",
      "zip_code": "90014",
      "country": "US",
      "cost": "$$",
      "coords": { "lat": 34.0441, "lng": -118.2533 },
      "description": "A basement dive bar located in a former bank vault in the Historic Core.",
      "fact": "You can still see the original heavy steel safe doors within the bar's interior architecture.",
      "metrics": { "comfy_score": { "val": 7, "note": "Dark/Vaulted." }, "stability_index": { "val": 9, "note": "Historic DTLA feel." }, "boundary_level": { "val": 10, "note": "Isolated/Secret." }, "food_adventure": { "val": 5, "note": "Standard bar fare." } }
    },
    {
      "id": "bar-us-94610-heart-dagger-saloon",
      "name": "Heart & Dagger Saloon",
      "type": "bar",
      "address": "504 Lake Park Ave",
      "city": "Oakland",
      "state": "CA",
      "zip_code": "94610",
      "country": "US",
      "cost": "$",
      "coords": { "lat": 37.8118, "lng": -122.2475 },
      "description": "The benchmark for aloof friendliness; a rock-focused dive with a legendary heated patio.",
      "fact": "The owners got matching bar logo tattoos immediately after signing the lease in 2009.",
      "metrics": { "comfy_score": { "val": 9, "note": "Elite patio vibes." }, "stability_index": { "val": 10, "note": "Never changes." }, "boundary_level": { "val": 10, "note": "Perfectly hands-off." }, "food_adventure": { "val": 7, "note": "Taco truck synergy." } }
    },
    {
      "id": "bar-us-94606-baggys-by-the-lake",
      "name": "Baggy’s By the Lake",
      "type": "bar",
      "address": "288 E 18th St",
      "city": "Oakland",
      "state": "CA",
      "zip_code": "94606",
      "country": "US",
      "cost": "$",
      "coords": { "lat": 37.7998, "lng": -122.2534 },
      "description": "A historic neighborhood dive near Lake Merritt, operating since the end of Prohibition.",
      "fact": "Legend says the original owner lost the bar to a bookie named Baggy in a 1940s gambling debt.",
      "metrics": { "comfy_score": { "val": 8, "note": "Homey/Classic." }, "stability_index": { "val": 10, "note": "Rock solid soul." }, "boundary_level": { "val": 9, "note": "Neighborhood warm." }, "food_adventure": { "val": 3, "note": "Liquid focus." } }
    },
    {
      "id": "restaurant-us-94612-square-pie-guys-oakland",
      "name": "Square Pie Guys (Oakland)",
      "type": "restaurant",
      "address": "499 9th St",
      "city": "Oakland",
      "state": "CA",
      "zip_code": "94612",
      "country": "US",
      "cost": "$$",
      "coords": { "lat": 37.8016, "lng": -122.2743 },
      "description": "Detroit-style pizza known for its crispy 'frico' cheese crust and creative toppings.",
      "fact": "The founders met on Reddit to discuss pizza before launching their first pop-up.",
      "metrics": { "comfy_score": { "val": 7, "note": "Modern industrial." }, "stability_index": { "val": 9, "note": "Highly consistent." }, "boundary_level": { "val": 8, "note": "Tech-forward service." }, "food_adventure": { "val": 8, "note": "Top Detroit style." } }
    },
    {
      "id": "restaurant-us-94103-square-pie-guys-sf",
      "name": "Square Pie Guys (SF)",
      "type": "restaurant",
      "address": "1077 Mission St",
      "city": "San Francisco",
      "state": "CA",
      "zip_code": "94103",
      "country": "US",
      "cost": "$$",
      "coords": { "lat": 37.7805, "lng": -122.4103 },
      "description": "The original SoMa location that brought 'frico' crust to the Bay Area.",
      "fact": "Their name is a direct homage to the square pans used in traditional Detroit pizza making.",
      "metrics": { "comfy_score": { "val": 6, "note": "Bustling city spot." }, "stability_index": { "val": 9, "note": "Reliable crunch." }, "boundary_level": { "val": 8, "note": "Fast-paced." }, "food_adventure": { "val": 8, "note": "Iconic edges." } }
    },
    {
      "id": "restaurant-us-94596-square-pie-guys-wc",
      "name": "Square Pie Guys (Walnut Creek)",
      "type": "restaurant",
      "address": "1616 N Main St",
      "city": "Walnut Creek",
      "state": "CA",
      "zip_code": "94596",
      "country": "US",
      "cost": "$$",
      "coords": { "lat": 37.9014, "lng": -122.0617 },
      "description": "The East Bay expansion of the famous Detroit-style square pizza.",
      "fact": "This location was built to handle high-volume takeout while maintaining a family-friendly dine-in vibe.",
      "metrics": { "comfy_score": { "val": 8, "note": "Roomy seating." }, "stability_index": { "val": 9, "note": "Strict quality control." }, "boundary_level": { "val": 8, "note": "Suburban professional." }, "food_adventure": { "val": 8, "note": "Great variety." } }
    },
    {
      "id": "restaurant-us-94611-lovelys-lodge",
      "name": "Lovely's (The Lodge)",
      "type": "restaurant",
      "address": "3758 Piedmont Ave",
      "city": "Oakland",
      "state": "CA",
      "zip_code": "94611",
      "country": "US",
      "cost": "$$",
      "coords": { "lat": 37.8251, "lng": -122.2532 },
      "description": "A shipping-container burger joint serving elevated Americana inside a cozy bar patio.",
      "fact": "Their 'Drive-thru' style burger is a specific homage to mid-century California burger stands.",
      "metrics": { "comfy_score": { "val": 9, "note": "Fire pits and chill." }, "stability_index": { "val": 10, "note": "Burger perfection." }, "boundary_level": { "val": 10, "note": "Perfectly distanced." }, "food_adventure": { "val": 8, "note": "Nostalgia on a plate." } }
    },
    {
      "id": "restaurant-us-94609-lovelys-oakland",
      "name": "Lovely's (North Oakland)",
      "type": "restaurant",
      "address": "4401 San Pablo Ave",
      "city": "Emeryville",
      "state": "CA",
      "zip_code": "94608",
      "country": "US",
      "cost": "$$",
      "coords": { "lat": 37.8335, "lng": -122.2818 },
      "description": "The larger expansion of the Lovely's brand, maintaining the high-quality smash burger focus.",
      "fact": "Often cited by local chefs as the best 'no-bullshit' burger in the East Bay.",
      "metrics": { "comfy_score": { "val": 8, "note": "Modern/Clean." }, "stability_index": { "val": 9, "note": "Very consistent." }, "boundary_level": { "val": 9, "note": "Efficient/Direct." }, "food_adventure": { "val": 8, "note": "Burger excellence." } }
    },
    {
      "id": "restaurant-us-94103-dumpling-time-sf",
      "name": "Dumpling Time (Design District)",
      "type": "restaurant",
      "address": "11 Division St",
      "city": "San Francisco",
      "state": "CA",
      "zip_code": "94103",
      "country": "US",
      "cost": "$$$",
      "coords": { "lat": 37.7712, "lng": -122.4124 },
      "description": "High-design dumpling house featuring an open kitchen and colorful gyoza.",
      "fact": "Famous for their 'King-Dum'—a giant XLB that requires a straw to drink the broth.",
      "metrics": { "comfy_score": { "val": 7, "note": "Modern/Loud." }, "stability_index": { "val": 9, "note": "Professional execution." }, "boundary_level": { "val": 7, "note": "Bustling social spot." }, "food_adventure": { "val": 9, "note": "Visually stunning food." } }
    },
    {
      "id": "restaurant-us-94612-dumpling-time-oakland",
      "name": "Dumpling Time (Oakland)",
      "type": "restaurant",
      "address": "2273 Broadway",
      "city": "Oakland",
      "state": "CA",
      "zip_code": "94612",
      "country": "US",
      "cost": "$$$",
      "coords": { "lat": 37.8122, "lng": -122.2683 },
      "description": "The Uptown Oakland location bringing handmade dumplings to the heart of the arts district.",
      "fact": "Features a large outdoor parklet area that has become a staple of the Uptown vibe.",
      "metrics": { "comfy_score": { "val": 8, "note": "Great outdoor space." }, "stability_index": { "val": 9, "note": "Consistently high tier." }, "boundary_level": { "val": 8, "note": "Slick/Professional." }, "food_adventure": { "val": 9, "note": "Handmade excellence." } }
    },
    {
      "id": "restaurant-us-94612-aburaya",
      "name": "Aburaya",
      "type": "restaurant",
      "address": "362 17th St",
      "city": "Oakland",
      "state": "CA",
      "zip_code": "94612",
      "country": "US",
      "cost": "$$",
      "coords": { "lat": 37.8055, "lng": -122.2691 },
      "description": "Punk-rock Japanese fried chicken (Karaage) with seasonal izakaya-style sides.",
      "fact": "Started as a pop-up and remains one of the most culturally authentic Oakland punk spaces.",
      "metrics": { "comfy_score": { "val": 7, "note": "Cozy/Loud." }, "stability_index": { "val": 10, "note": "Top tier Karaage." }, "boundary_level": { "val": 8, "note": "Direct/Efficient." }, "food_adventure": { "val": 9, "note": "Unique fusion." } }
    },
    {
      "id": "bar-us-94612-cafe-van-kleef",
      "name": "Cafe Van Kleef",
      "type": "bar",
      "address": "1621 Telegraph Ave",
      "city": "Oakland",
      "state": "CA",
      "zip_code": "94612",
      "country": "US",
      "cost": "$$",
      "coords": { "lat": 37.8066, "lng": -122.2701 },
      "description": "An eccentric Oakland landmark filled with curios and known for fresh-squeezed Greyhounds.",
      "fact": "Founded by the late Peter Van Kleef, the bar serves as a memorial to his artistic vision.",
      "metrics": { "comfy_score": { "val": 7, "note": "Eclectic/Cluttered." }, "stability_index": { "val": 10, "note": "Untouchable soul." }, "boundary_level": { "val": 9, "note": "Bartender's bar." }, "food_adventure": { "val": 6, "note": "The Greyhound is the meal." } }
    },
    {
      "id": "restaurant-us-94612-soba-ichi",
      "name": "Soba Ichi",
      "type": "restaurant",
      "address": "2311A Magnolia St",
      "city": "Oakland",
      "state": "CA",
      "zip_code": "94607",
      "country": "US",
      "cost": "$$$",
      "coords": { "lat": 37.8152, "lng": -122.2858 },
      "description": "Authentic, stone-milled Japanese soba noodles in a serene, hidden West Oakland courtyard.",
      "fact": "One of the few places in the US that mills its own buckwheat on-site using a Japanese stone mill.",
      "metrics": { "comfy_score": { "val": 10, "note": "Zen-like courtyard." }, "stability_index": { "val": 10, "note": "Technical mastery." }, "boundary_level": { "val": 9, "note": "Respectful silence." }, "food_adventure": { "val": 10, "note": "Pure craftsmanship." } }
    },
    {
      "id": "restaurant-us-94111-kokkari-estiatorio",
      "name": "Kokkari Estiatorio",
      "type": "restaurant",
      "address": "200 Jackson St",
      "city": "San Francisco",
      "state": "CA",
      "zip_code": "94111",
      "country": "US",
      "cost": "$$$$",
      "coords": { "lat": 37.7972, "lng": -122.3998 },
      "description": "World-class Hellenic cuisine in a rustic, fireplace-lit dining room that feels like a Greek estate.",
      "fact": "Widely considered the best Greek restaurant in America by major food critics.",
      "metrics": { "comfy_score": { "val": 10, "note": "Elite comfort/Fireplace." }, "stability_index": { "val": 10, "note": "Michelin standard." }, "boundary_level": { "val": 8, "note": "High-end attentive." }, "food_adventure": { "val": 9, "note": "Hellenic perfection." } }
    },
    {
      "id": "bar-us-94607-faction-brewing",
      "name": "Faction Brewing",
      "type": "bar",
      "address": "2501 Monarch St",
      "city": "Alameda",
      "state": "CA",
      "zip_code": "94501",
      "country": "US",
      "cost": "$$",
      "coords": { "lat": 37.7812, "lng": -122.3088 },
      "description": "A massive hangar brewery on the Alameda Navy Base with sweeping views of the SF skyline.",
      "fact": "The taproom is located in a former aircraft hangar, offering one of the best sunset views in the Bay.",
      "metrics": { "comfy_score": { "val": 9, "note": "Best skyline views." }, "stability_index": { "val": 9, "note": "Solid beer lineups." }, "boundary_level": { "val": 10, "note": "Total hangar freedom." }, "food_adventure": { "val": 7, "note": "Rotating food trucks." } }
    },
    {
      "id": "restaurant-us-94611-philomena",
      "name": "Philomena",
      "type": "restaurant",
      "address": "1801 14th Ave",
      "city": "Oakland",
      "state": "CA",
      "zip_code": "94606",
      "country": "US",
      "cost": "$$",
      "coords": { "lat": 37.7915, "lng": -122.2422 },
      "description": "Neighborhood pizza and beer spot with a focus on local community and quality ingredients.",
      "fact": "Known for their 'Thin Crust' style which contrasts the heavier Detroit styles popular in the area.",
      "metrics": { "comfy_score": { "val": 8, "note": "Quiet/Neighborhood." }, "stability_index": { "val": 9, "note": "Steady and good." }, "boundary_level": { "val": 9, "note": "Unpretentious." }, "food_adventure": { "val": 7, "note": "Solid local pizza." } }
    },
    {
      "id": "bar-us-94612-double-standard",
      "name": "The Double Standard",
      "type": "bar",
      "address": "2424 Telegraph Ave",
      "city": "Oakland",
      "state": "CA",
      "zip_code": "94612",
      "country": "US",
      "cost": "$$",
      "coords": { "lat": 37.8136, "lng": -122.2694 },
      "description": "Chic Uptown bar with a massive, beautiful redwood-tree patio and great cocktails.",
      "fact": "The giant redwood tree in the patio was actually planted by the bar's founders.",
      "metrics": { "comfy_score": { "val": 9, "note": "Elite Redwood patio." }, "stability_index": { "val": 9, "note": "Consistent Uptown." }, "boundary_level": { "val": 8, "note": "Trendy/Professional." }, "food_adventure": { "val": 6, "note": "Cocktail focus." } }
    },
    {
      "id": "bar-us-94103-standard-deviant",
      "name": "Standard Deviant Brewing",
      "type": "bar",
      "address": "280 14th St",
      "city": "San Francisco",
      "state": "CA",
      "zip_code": "94103",
      "country": "US",
      "cost": "$$",
      "coords": { "lat": 37.7684, "lng": -122.4208 },
      "description": "Unpretentious, open-plan brewery in the Mission District with a massive U-shaped bar.",
      "fact": "They operate on a 'no-frills' philosophy, focusing purely on classical beer styles without gimmicks.",
      "metrics": { "comfy_score": { "val": 8, "note": "Huge/Open space." }, "stability_index": { "val": 9, "note": "Reliable classics." }, "boundary_level": { "val": 10, "note": "Autonomous." }, "food_adventure": { "val": 6, "note": "Food pop-ups." } }
    },
    {
      "id": "restaurant-us-94610-ordinaire",
      "name": "Ordinaire",
      "type": "restaurant",
      "address": "3354 Grand Ave",
      "city": "Oakland",
      "state": "CA",
      "zip_code": "94610",
      "country": "US",
      "cost": "$$$",
      "coords": { "lat": 37.8101, "lng": -122.2478 },
      "description": "A natural wine shop and bar with a European 'caviste' vibe and high-end small plates.",
      "fact": "Instrumental in the West Coast natural wine movement, focusing on low-intervention producers.",
      "metrics": { "comfy_score": { "val": 8, "note": "European sidewalk." }, "stability_index": { "val": 9, "note": "Curated perfection." }, "boundary_level": { "val": 8, "note": "Intellectual distance." }, "food_adventure": { "val": 9, "note": "Wine discovery." } }
    },
    {
      "id": "restaurant-us-94703-kinda-izakaya",
      "name": "Kinda Izakaya",
      "type": "restaurant",
      "address": "2522 San Pablo Ave",
      "city": "Berkeley",
      "state": "CA",
      "zip_code": "94702",
      "country": "US",
      "cost": "$$$",
      "coords": { "lat": 37.8631, "lng": -122.2895 },
      "description": "A low-key, high-quality Japanese izakaya specializing in charcoal-grilled skewers (Yakitori).",
      "fact": "It’s a 'secret' favorite for Berkeley foodies who want an authentic, non-commercial experience.",
      "metrics": { "comfy_score": { "val": 8, "note": "Intimate/Dark." }, "stability_index": { "val": 9, "note": "Precise grilling." }, "boundary_level": { "val": 9, "note": "Quiet focus." }, "food_adventure": { "val": 10, "note": "Yakitori mastery." } }
    },
    {
      "id": "bar-us-94107-victory-hall",
      "name": "Victory Hall",
      "type": "bar",
      "address": "360 Ritch St",
      "city": "San Francisco",
      "state": "CA",
      "zip_code": "94107",
      "country": "US",
      "cost": "$$",
      "coords": { "lat": 37.7792, "lng": -122.3942 },
      "description": "A classic SoMa neighborhood bar known for cocktails and hosting Little Skillet's famous fried chicken.",
      "fact": "Ritch Street is a historic SF alleyway that has housed some of the city's best 'hidden' clubs.",
      "metrics": { "comfy_score": { "val": 8, "note": "Spacious tavern." }, "stability_index": { "val": 9, "note": "Consistent energy." }, "boundary_level": { "val": 9, "note": "Bartender focus." }, "food_adventure": { "val": 9, "note": "Little Skillet chicken." } }
    },
    {
      "id": "museum-us-94118-de-young",
      "name": "De Young Museum",
      "type": "museum",
      "address": "50 Hagiwara Tea Garden Dr",
      "city": "San Francisco",
      "state": "CA",
      "zip_code": "94118",
      "country": "US",
      "cost": "$$$",
      "coords": { "lat": 37.7715, "lng": -122.4687 },
      "description": "Fine arts museum in Golden Gate Park known for its stunning copper facade and Hamon Tower views.",
      "fact": "The copper exterior is designed to oxidize and turn green to blend in with the surrounding park trees.",
      "metrics": { "comfy_score": { "val": 9, "note": "Elite architecture." }, "stability_index": { "val": 10, "note": "World class." }, "boundary_level": { "val": 10, "note": "Massive autonomy." }, "food_adventure": { "val": 6, "note": "Solid cafe." } }
    },
    {
      "id": "museum-us-94121-legion-of-honor",
      "name": "Legion of Honor",
      "type": "museum",
      "address": "100 34th Ave",
      "city": "San Francisco",
      "state": "CA",
      "zip_code": "94121",
      "country": "US",
      "cost": "$$$",
      "coords": { "lat": 37.7845, "lng": -122.5008 },
      "description": "Neoclassical art museum in Lincoln Park overlooking the Golden Gate Bridge.",
      "fact": "It houses one of the original casts of Auguste Rodin’s 'The Thinker' in its courtyard.",
      "metrics": { "comfy_score": { "val": 10, "note": "Breathtaking views." }, "stability_index": { "val": 10, "note": "Timeless." }, "boundary_level": { "val": 10, "note": "Total solitude." }, "food_adventure": { "val": 5, "note": "Standard museum fare." } }
    },
    {
      "id": "restaurant-us-94553-tzunun",
      "name": "Tzunun",
      "type": "restaurant",
      "address": "1202 Main St",
      "city": "Pleasant Hill",
      "state": "CA",
      "zip_code": "94523",
      "country": "US",
      "cost": "$$",
      "coords": { "lat": 37.9472, "lng": -122.0614 },
      "description": "Elevated Mexican cuisine focusing on Mayan flavors and high-quality ingredients.",
      "fact": "Tzunun means 'hummingbird' in Mayan, reflecting the delicate and colorful nature of the dishes.",
      "metrics": { "comfy_score": { "val": 8, "note": "Clean/Modern." }, "stability_index": { "val": 9, "note": "Strong standards." }, "boundary_level": { "val": 8, "note": "Polite service." }, "food_adventure": { "val": 9, "note": "Mayan influence." } }
    },
    {
      "id": "restaurant-us-94553-vanessas-bistro",
      "name": "Vanessa's Bistro",
      "type": "restaurant",
      "address": "1516 Bonanza St",
      "city": "Walnut Creek",
      "state": "CA",
      "zip_code": "94596",
      "country": "US",
      "cost": "$$",
      "coords": { "lat": 37.9004, "lng": -122.0628 },
      "description": "Vietnamese-French fusion tapas with a high-energy bar and great cocktails.",
      "fact": "A local Walnut Creek favorite for over a decade, known for their shaken beef and martinis.",
      "metrics": { "comfy_score": { "val": 7, "note": "Bustling/Tapas vibe." }, "stability_index": { "val": 9, "note": "Reliably fun." }, "boundary_level": { "val": 7, "note": "Socially active." }, "food_adventure": { "val": 8, "note": "Solid fusion." } }
    },
    {
      "id": "restaurant-us-94612-donutsavant",
      "name": "Donut Savant",
      "type": "restaurant",
      "address": "3000 38th Ave",
      "city": "Oakland",
      "state": "CA",
      "zip_code": "94619",
      "country": "US",
      "cost": "$",
      "coords": { "lat": 37.7892, "lng": -122.2031 },
      "description": "Small-batch artisanal donuts focusing on texture and unique glazes.",
      "fact": "Known for their 'donut holes' which are often more complex and flavorful than traditional full-sized donuts.",
      "metrics": { "comfy_score": { "val": 6, "note": "Counter/Takeout." }, "stability_index": { "val": 10, "note": "Elite donuts." }, "boundary_level": { "val": 9, "note": "Quick/Friendly." }, "food_adventure": { "val": 9, "note": "High-tier craft." } }
    },
    {
      "id": "restaurant-us-92104-friendly-tavern",
      "name": "The Friendly Tavern",
      "type": "restaurant",
      "address": "2632 University Ave",
      "city": "San Diego",
      "state": "CA",
      "zip_code": "92104",
      "country": "US",
      "cost": "$$",
      "coords": { "lat": 32.7485, "lng": -117.1301 },
      "description": "A 'no-bullshit' burger stand with a massive outdoor patio and elite smash burgers.",
      "fact": "Their motto is 'Dirty Flat Tops and Cold Beer,' and they famously refuse to customize their burgers.",
      "metrics": { "comfy_score": { "val": 8, "note": "Huge chill patio." }, "stability_index": { "val": 10, "note": "Unwavering quality." }, "boundary_level": { "val": 9, "note": "Punk-rock efficiency." }, "food_adventure": { "val": 9, "note": "Best burger in SD." } }
    },
    {
      "id": "restaurant-us-89109-momofuku-lv",
      "name": "Momofuku Las Vegas",
      "type": "restaurant",
      "address": "3708 Las Vegas Blvd S",
      "city": "Las Vegas",
      "state": "NV",
      "zip_code": "89109",
      "country": "US",
      "cost": "$$$$",
      "coords": { "lat": 36.1097, "lng": -115.1739 },
      "description": "David Chang’s high-energy outpost in The Cosmopolitan, blending Korean and American flavors.",
      "fact": "The Las Vegas location features exclusive 'large format' dishes designed for high-roller groups.",
      "metrics": { "comfy_score": { "val": 9, "note": "High-end Vegas glitz." }, "stability_index": { "val": 9, "note": "Professional/Crisp." }, "boundary_level": { "val": 7, "note": "Bustling casino crowd." }, "food_adventure": { "val": 10, "note": "Global culinary icon." } }
    },
    {
      "id": "restaurant-us-98119-phuket-night-market",
      "name": "Phuket I'm 69",
      "type": "restaurant",
      "address": "210 1st Ave N",
      "city": "Seattle",
      "state": "WA",
      "zip_code": "98109",
      "country": "US",
      "cost": "$$",
      "coords": { "lat": 47.6201, "lng": -112.3551 },
      "description": "Neon-lit, vibrant Thai street food in Lower Queen Anne with a high-energy bar.",
      "fact": "Known for having one of the most playful interiors in the Seattle food scene.",
      "metrics": { "comfy_score": { "val": 7, "note": "Vibrant/Loud." }, "stability_index": { "val": 9, "note": "Always a party." }, "boundary_level": { "val": 8, "note": "Fun/Engaged." }, "food_adventure": { "val": 9, "note": "Authentic street funk." } }
    },
    {
      "id": "restaurant-us-97214-pine-state-biscuits",
      "name": "Pine State Biscuits (Division)",
      "type": "restaurant",
      "address": "1100 SE Division St",
      "city": "Portland",
      "state": "OR",
      "zip_code": "97202",
      "country": "US",
      "cost": "$$",
      "coords": { "lat": 45.5048, "lng": -122.6541 },
      "description": "North Carolina-style biscuits and gravy that redefined the Portland brunch scene.",
      "fact": "Started at the Portland Farmers Market before becoming a multi-location powerhouse.",
      "metrics": { "comfy_score": { "val": 7, "note": "Modern industrial." }, "stability_index": { "val": 10, "note": "The brunch king." }, "boundary_level": { "val": 9, "note": "Efficient lines." }, "food_adventure": { "val": 9, "note": "Gravy-soaked heaven." } }
    },
    {
      "id": "bar-us-70130-nostalgia-nola",
      "name": "Nostalgia Nola",
      "type": "bar",
      "address": "124 Chartres St",
      "city": "New Orleans",
      "state": "LA",
      "zip_code": "70130",
      "country": "US",
      "cost": "$$",
      "coords": { "lat": 29.9531, "lng": -90.0678 },
      "description": "A stylish cocktail lounge with a vintage feel in the heart of the French Quarter.",
      "fact": "The building reflects the Spanish-French architectural transition of the late 1700s.",
      "metrics": { "comfy_score": { "val": 9, "note": "Velvet/Plush." }, "stability_index": { "val": 8, "note": "Consistent vibes." }, "boundary_level": { "val": 9, "note": "Sophisticated." }, "food_adventure": { "val": 7, "note": "Excellent drinks." } }
    },
    {
      "id": "restaurant-us-11249-lilia",
      "name": "Lilia",
      "type": "restaurant",
      "address": "567 Union Ave",
      "city": "Brooklyn",
      "state": "NY",
      "zip_code": "11211",
      "country": "US",
      "cost": "$$$$",
      "coords": { "lat": 40.7176, "lng": -73.9526 },
      "description": "Chef Missy Robbins’ legendary wood-fired Italian in a converted auto-body shop.",
      "fact": "Winning a table here is considered a 'sport' in NYC due to its immense popularity.",
      "metrics": { "comfy_score": { "val": 9, "note": "Elite/Aesthetic." }, "stability_index": { "val": 10, "note": "Masterclass." }, "boundary_level": { "val": 8, "note": "High-end busy." }, "food_adventure": { "val": 10, "note": "Life-changing pasta." } }
    },
    {
      "id": "restaurant-us-20003-chloe",
      "name": "Chloe",
      "type": "restaurant",
      "address": "1331 4th St SE",
      "city": "Washington",
      "state": "DC",
      "zip_code": "20003",
      "country": "US",
      "cost": "$$$",
      "coords": { "lat": 38.8741, "lng": -77.0004 },
      "description": "Global, spice-driven small plates by Chef Haidar Karoum in the Navy Yard.",
      "fact": "The restaurant is named after the chef’s eldest daughter and his love for Lebanon.",
      "metrics": { "comfy_score": { "val": 9, "note": "Sleek/Sunlight." }, "stability_index": { "val": 10, "note": "Flawless." }, "boundary_level": { "val": 9, "note": "Pro/Distance." }, "food_adventure": { "val": 10, "note": "Diverse/Creative." } }
    },
    {
      "id": "bar-us-98119-ozzees",
      "name": "Ozzie's",
      "type": "bar",
      "address": "105 W Mercer St",
      "city": "Seattle",
      "state": "WA",
      "zip_code": "98119",
      "country": "US",
      "cost": "$",
      "coords": { "lat": 47.6244, "lng": -122.3575 },
      "description": "A sprawling, multi-room dive bar and karaoke staple in Queen Anne.",
      "fact": "It has been a centerpiece of Seattle's casual nightlife for decades, surviving the tech boom.",
      "metrics": { "comfy_score": { "val": 6, "note": "Gritty/Spacious." }, "stability_index": { "val": 9, "note": "Always a dive." }, "boundary_level": { "val": 10, "note": "Lost in the crowd." }, "food_adventure": { "val": 5, "note": "Standard fried." } }
    },
    {
      "id": "restaurant-us-89103-fukuburger",
      "name": "Fukuburger",
      "type": "restaurant",
      "address": "3429 S Jones Blvd",
      "city": "Las Vegas",
      "state": "NV",
      "zip_code": "89146",
      "country": "US",
      "cost": "$$",
      "coords": { "lat": 36.1265, "lng": -115.2255 },
      "description": "Japanese-inspired burgers featuring ingredients like wasabi mayo and pickled ginger.",
      "fact": "Started as a cult-favorite food truck before opening this permanent 'off-strip' location.",
      "metrics": { "comfy_score": { "val": 7, "note": "Casual/Fun." }, "stability_index": { "val": 9, "note": "Consistently bold." }, "boundary_level": { "val": 9, "note": "Chill/Direct." }, "food_adventure": { "val": 9, "note": "Umami bomb." } }
    },
    {
      "id": "restaurant-us-92101-beshock-ramen",
      "name": "BESHOCK Ramen",
      "type": "restaurant",
      "address": "1288 Market St",
      "city": "San Diego",
      "state": "CA",
      "zip_code": "92101",
      "country": "US",
      "cost": "$$",
      "coords": { "lat": 32.7115, "lng": -117.1528 },
      "description": "A gourmet ramen and sake bar focused on authentic Japanese broth and pairings.",
      "fact": "The co-founder is a certified Sake Sommelier, emphasizing the marriage of broth and rice wine.",
      "metrics": { "comfy_score": { "val": 8, "note": "Clean/Modern." }, "stability_index": { "val": 9, "note": "Very reliable." }, "boundary_level": { "val": 8, "note": "Polite/Engaged." }, "food_adventure": { "val": 9, "note": "High-end Ramen." } }
    },
    {
      "id": "restaurant-us-92675-heritage-bbq",
      "name": "Heritage BBQ",
      "type": "restaurant",
      "address": "31721 Camino Capistrano",
      "city": "San Juan Capistrano",
      "state": "CA",
      "zip_code": "92675",
      "country": "US",
      "cost": "$$$",
      "coords": { "lat": 33.5011, "lng": -117.6625 },
      "description": "Craft Texas-style barbecue that has set the gold standard for Southern California.",
      "fact": "They use offset smokers and traditional post oak wood, just like the legends in Austin.",
      "metrics": { "comfy_score": { "val": 8, "note": "Patio/Mission vibes." }, "stability_index": { "val": 10, "note": "Barbecue perfection." }, "boundary_level": { "val": 9, "note": "Order and enjoy." }, "food_adventure": { "val": 10, "note": "Best BBQ on the coast." } }
    },
    {
      "id": "restaurant-us-98101-pink-door",
      "name": "The Pink Door",
      "type": "restaurant",
      "address": "1919 Post Alley",
      "city": "Seattle",
      "state": "WA",
      "zip_code": "98101",
      "country": "US",
      "cost": "$$$",
      "coords": { "lat": 47.6102, "lng": -122.3425 },
      "description": "An iconic, burlesque-infused Italian restaurant hidden behind a pink door in Pike Place.",
      "fact": "There is no sign out front—only the pink door—to maintain its 'speakeasy' feel.",
      "metrics": { "comfy_score": { "val": 10, "note": "Aesthetic/Secret." }, "stability_index": { "val": 10, "note": "Legendary." }, "boundary_level": { "val": 7, "note": "Highly social." }, "food_adventure": { "val": 9, "note": "Theatrical dining." } }
    },
    {
      "id": "hotel-us-97703-campfire-hotel",
      "name": "Campfire Hotel",
      "type": "hotel",
      "address": "721 NE 3rd St",
      "city": "Bend",
      "state": "OR",
      "zip_code": "97701",
      "country": "US",
      "cost": "$$",
      "coords": { "lat": 44.0592, "lng": -121.3031 },
      "description": "A hip, outdoorsy boutique hotel with a fire-pit centric courtyard and mountain vibes.",
      "fact": "Formerly a mid-century motor lodge, it was renovated to target the 'apres-ski' crowd.",
      "metrics": { "comfy_score": { "val": 9, "note": "Peak outdoorsy chic." }, "stability_index": { "val": 9, "note": "Reliably fun." }, "boundary_level": { "val": 8, "note": "Community-focused." }, "food_adventure": { "val": 8, "note": "Great canteen." } }
    },
    {
      "id": "bar-us-93446-booker-winery",
      "name": "Booker Winery",
      "type": "bar",
      "address": "2644 Anderson Rd",
      "city": "Paso Robles",
      "state": "CA",
      "zip_code": "93446",
      "country": "US",
      "cost": "$$$",
      "coords": { "lat": 35.5615, "lng": -120.7381 },
      "description": "High-end Paso winery known for bold Rhône varietals and stunning modern architecture.",
      "fact": "The name honors the Booker brothers, who were legendary farmers in the area during the early 1900s.",
      "metrics": { "comfy_score": { "val": 10, "note": "Elite vineyard design." }, "stability_index": { "val": 10, "note": "World class." }, "boundary_level": { "val": 9, "note": "Exclusive/Spacious." }, "food_adventure": { "val": 9, "note": "Top-tier terroir." } }
    },
    {
      "id": "restaurant-us-93301-poppis-pastrami",
      "name": "Poppi's Pastrami",
      "type": "restaurant",
      "address": "1517 18th St",
      "city": "Bakersfield",
      "state": "CA",
      "zip_code": "93301",
      "country": "US",
      "cost": "$$",
      "coords": { "lat": 35.3751, "lng": -119.0192 },
      "description": "A high-quality Jewish-style deli bringing elite pastrami to the Central Valley.",
      "fact": "They pride themselves on traditional steaming methods that take days of preparation.",
      "metrics": { "comfy_score": { "val": 7, "note": "Classic Deli." }, "stability_index": { "val": 9, "note": "Reliable meat." }, "boundary_level": { "val": 9, "note": "Direct/Fast." }, "food_adventure": { "val": 9, "note": "Best in the valley." } }
    },
    {
      "id": "hike-us-84767-angels-landing",
      "name": "Angel's Landing",
      "type": "hike",
      "address": "Zion National Park",
      "city": "Springdale",
      "state": "UT",
      "zip_code": "84767",
      "country": "US",
      "cost": "$",
      "coords": { "lat": 37.2691, "lng": -112.9479 },
      "description": "High-exposure ridge trail with chain assists and iconic canyon views.",
      "fact": "The trail was carved into the rock in 1926 and remains one of the most dangerous hikes in the US.",
      "metrics": { "comfy_score": { "val": 2, "note": "High physical stress." }, "stability_index": { "val": 7, "note": "Strictly permitted." }, "boundary_level": { "val": 4, "note": "Forced social proximity." }, "food_adventure": { "val": 1, "note": "Pack-in only." } }
    },
    {
      "id": "hike-us-84767-the-narrows",
      "name": "The Narrows",
      "type": "hike",
      "address": "Zion National Park",
      "city": "Springdale",
      "state": "UT",
      "zip_code": "84767",
      "country": "US",
      "cost": "$",
      "coords": { "lat": 37.2852, "lng": -112.9475 },
      "description": "A river-hike through the narrowest section of Zion Canyon with walls 1,000 feet tall.",
      "fact": "You spend 60% of this hike wading in the Virgin River; water levels fluctuate daily.",
      "metrics": { "comfy_score": { "val": 3, "note": "Wet and strenuous." }, "stability_index": { "val": 5, "note": "Weather dependent." }, "boundary_level": { "val": 6, "note": "Shared struggle." }, "food_adventure": { "val": 1, "note": "Water only." } }
    },
    {
      "id": "hike-us-83637-kirkham-hot-springs",
      "name": "Kirkham Hot Springs",
      "type": "hike",
      "address": "Highway 21",
      "city": "Lowman",
      "state": "ID",
      "zip_code": "83637",
      "country": "US",
      "cost": "$",
      "coords": { "lat": 44.0725, "lng": -115.5414 },
      "description": "Natural geothermal pools and warm waterfalls on the banks of the Payette River.",
      "fact": "It is entirely stair-accessible but remains one of the most 'wild' feeling roadside springs in Idaho.",
      "metrics": { "comfy_score": { "val": 10, "note": "Natural spa." }, "stability_index": { "val": 6, "note": "Crowd dependent." }, "boundary_level": { "val": 5, "note": "Public soaking." }, "food_adventure": { "val": 1, "note": "None." } }
    },
    {
      "id": "hike-us-93923-pfeiffer-beach",
      "name": "Pfeiffer Beach",
      "type": "hike",
      "address": "Sycamore Canyon Rd",
      "city": "Big Sur",
      "state": "CA",
      "zip_code": "93923",
      "country": "US",
      "cost": "$$",
      "coords": { "lat": 36.2381, "lng": -121.8126 },
      "description": "Hidden beach known for purple sand and the massive Keyhole Arch rock formation.",
      "fact": "The purple tint in the sand comes from manganese garnet washing down from the cliffs above.",
      "metrics": { "comfy_score": { "val": 7, "note": "Windy but beautiful." }, "stability_index": { "val": 8, "note": "Always majestic." }, "boundary_level": { "val": 9, "note": "Isolated feel." }, "food_adventure": { "val": 2, "note": "Picnic focus." } }
    },
    {
      "id": "hike-ca-t1l-lake-louise",
      "name": "Lake Louise Shoreline",
      "type": "hike",
      "address": "Lake Louise Dr",
      "city": "Banff",
      "state": "AB",
      "zip_code": "T1L 1K4",
      "country": "CA",
      "cost": "$",
      "coords": { "lat": 51.4177, "lng": -116.2219 },
      "description": "A turquoise glacial lake surrounded by high peaks and the Victoria Glacier.",
      "fact": "The water remains so cold year-round that it rarely exceeds 40°F (4°C).",
      "metrics": { "comfy_score": { "val": 9, "note": "Smooth gravel paths." }, "stability_index": { "val": 10, "note": "Eternal beauty." }, "boundary_level": { "val": 3, "note": "Very high tourism." }, "food_adventure": { "val": 8, "note": "Fairmont tea rooms." } }
    },
    {
      "id": "hike-ca-t1l-moraine-lake",
      "name": "Moraine Lake Rockpile",
      "type": "hike",
      "address": "Moraine Lake Rd",
      "city": "Banff",
      "state": "AB",
      "zip_code": "T1L",
      "country": "CA",
      "cost": "$",
      "coords": { "lat": 51.3276, "lng": -116.1810 },
      "description": "Short hike to the top of a natural dam with the most famous view in Canada.",
      "fact": "This view is known as the 'Twenty Dollar View' because it was featured on the Canadian $20 bill.",
      "metrics": { "comfy_score": { "val": 8, "note": "Short but steep stairs." }, "stability_index": { "val": 9, "note": "Stunning." }, "boundary_level": { "val": 2, "note": "Peak crowds." }, "food_adventure": { "val": 1, "note": "None." } }
    },
    {
      "id": "museum-us-90012-the-broad",
      "name": "The Broad",
      "type": "museum",
      "address": "221 S Grand Ave",
      "city": "Los Angeles",
      "state": "CA",
      "zip_code": "90012",
      "country": "US",
      "cost": "$",
      "coords": { "lat": 34.0545, "lng": -118.2501 },
      "description": "Contemporary art museum featuring the world-renowned Infinity Mirror Rooms.",
      "fact": "The building's 'veil-and-vault' design allows natural light to filter through a honeycomb shell.",
      "metrics": { "comfy_score": { "val": 9, "note": "Elite AC/Design." }, "stability_index": { "val": 10, "note": "Very organized." }, "boundary_level": { "val": 7, "note": "Timed entry crowds." }, "food_adventure": { "val": 8, "note": "Otium is adjacent." } }
    },
  {
    "id": "hotel-us-78701-citizenm-austin-downtown",
    "name": "citizenM Austin Downtown",
    "type": "hotel",
    "address": "617 Colorado St",
    "city": "Austin",
    "state": "TX",
    "zip_code": "78701",
    "country": "US",
    "cost": "$$",
    "coords": { "lat": 30.26773, "lng": -97.74464 },
    "description": "A design-forward downtown stay with compact smart rooms and a highly social lobby vibe.",
    "fact": "citizenM is built around fast self check-in, efficient room footprints, and big shared living spaces.",
    "metrics": {
      "comfy_score": { "val": 8, "note": "Modern, efficient comfort." },
      "stability_index": { "val": 9, "note": "Consistent brand experience." },
      "boundary_level": { "val": 8, "note": "Autonomy-friendly, minimal friction." },
      "food_adventure": { "val": 5, "note": "More about location than dining." }
    }
  },
  {
    "id": "hotel-us-97214-hotel-grand-stark",
    "name": "Hotel Grand Stark",
    "type": "hotel",
    "address": "509 SE Grand Ave",
    "city": "Portland",
    "state": "OR",
    "zip_code": "97214",
    "country": "US",
    "cost": "$$",
    "coords": { "lat": 45.51632, "lng": -122.66079 },
    "description": "A boutique Eastside base with a moody, stylish aesthetic and easy access to food + bars.",
    "fact": "A newer Portland boutique entry positioned as an Eastside anchor near the central corridors.",
    "metrics": {
      "comfy_score": { "val": 8, "note": "Boutique cozy." },
      "stability_index": { "val": 8, "note": "Reliable, consistent." },
      "boundary_level": { "val": 8, "note": "Easy in/out, low-stress." },
      "food_adventure": { "val": 7, "note": "Great neighborhood pairing." }
    }
  },
  {
    "id": "hotel-us-70130-old-no-77",
    "name": "The Old No. 77 Hotel & Chandlery",
    "type": "hotel",
    "address": "535 Tchoupitoulas St",
    "city": "New Orleans",
    "state": "LA",
    "zip_code": "70130",
    "country": "US",
    "cost": "$$",
    "coords": { "lat": 29.9449, "lng": -90.0709 },
    "description": "A Warehouse District boutique hotel blending industrial history with a local-art-forward identity.",
    "fact": "The building has deep warehouse roots; the hotel’s identity is tightly tied to local art + maker culture.",
    "metrics": {
      "comfy_score": { "val": 8, "note": "Warm boutique feel." },
      "stability_index": { "val": 8, "note": "Strong identity, consistent." },
      "boundary_level": { "val": 7, "note": "Lively district energy." },
      "food_adventure": { "val": 8, "note": "Excellent city for dining." }
    }
  },
  {
    "id": "hotel-us-11211-the-pod-brooklyn",
    "name": "The Pod Hotel Brooklyn",
    "type": "hotel",
    "address": "247 Metropolitan Ave",
    "city": "Brooklyn",
    "state": "NY",
    "zip_code": "11211",
    "country": "US",
    "cost": "$$",
    "coords": { "lat": 40.71355, "lng": -73.96178 },
    "description": "A compact, budget-smart Williamsburg stay designed for high-walkability and low fuss.",
    "fact": "Pod’s core promise is small, efficient rooms that trade square footage for location + affordability.",
    "metrics": {
      "comfy_score": { "val": 7, "note": "Compact but functional." },
      "stability_index": { "val": 8, "note": "Predictable value." },
      "boundary_level": { "val": 9, "note": "High autonomy." },
      "food_adventure": { "val": 8, "note": "Williamsburg = easy wins." }
    }
  },
  {
    "id": "hotel-us-95450-timber-cove-resort",
    "name": "Timber Cove Resort",
    "type": "hotel",
    "address": "21780 N Coast Hwy 1",
    "city": "Jenner",
    "state": "CA",
    "zip_code": "95450",
    "country": "US",
    "cost": "$$$",
    "coords": { "lat": 38.5166, "lng": -123.2469 },
    "description": "An iconic Sonoma Coast cliffside stay built around ocean drama, redwoods, and reset energy.",
    "fact": "The property is celebrated for its bluff-top setting and reimagined ‘classic lodge on the coast’ identity.",
    "metrics": {
      "comfy_score": { "val": 9, "note": "Retreat comfort." },
      "stability_index": { "val": 9, "note": "Strong, consistent vibe." },
      "boundary_level": { "val": 9, "note": "Space to breathe." },
      "food_adventure": { "val": 7, "note": "More nature than culinary quest." }
    }
  },
  {
    "id": "hotel-us-78664-the-ruby-hotel",
    "name": "The Ruby Hotel & Bar",
    "type": "hotel",
    "address": "400 Fannin Ave",
    "city": "Round Rock",
    "state": "TX",
    "zip_code": "78664",
    "country": "US",
    "cost": "$$",
    "coords": { "lat": 30.5088, "lng": -97.6798 },
    "description": "A small, stylish stay anchored by a strong bar program and a ‘local hangout’ feel.",
    "fact": "The concept leans into being equal parts hotel and neighborhood bar scene.",
    "metrics": {
      "comfy_score": { "val": 8, "note": "Boutique comfort." },
      "stability_index": { "val": 8, "note": "Consistent and easy." },
      "boundary_level": { "val": 8, "note": "Social if you want it." },
      "food_adventure": { "val": 6, "note": "More drinks than dining." }
    }
  },
  {
    "id": "hotel-us-93428-cambria-beach-lodge",
    "name": "Cambria Beach Lodge",
    "type": "hotel",
    "address": "6180 Moonstone Beach Dr",
    "city": "Cambria",
    "state": "CA",
    "zip_code": "93428",
    "country": "US",
    "cost": "$$",
    "coords": { "lat": 35.5649, "lng": -121.0968 },
    "description": "A mellow Moonstone Beach base that’s all about ocean air, sunsets, and low-pressure comfort.",
    "fact": "It’s positioned directly for the classic Cambria coastal routine: walk, view, reset, repeat.",
    "metrics": {
      "comfy_score": { "val": 9, "note": "Peak chill." },
      "stability_index": { "val": 9, "note": "Very predictable vibe." },
      "boundary_level": { "val": 9, "note": "Quiet autonomy." },
      "food_adventure": { "val": 6, "note": "Coastal casual." }
    }
  },
  {
    "id": "hotel-us-93950-lighthouse-lodge-monterey",
    "name": "Lighthouse Lodge & Cottages",
    "type": "hotel",
    "address": "1150 Lighthouse Ave",
    "city": "Pacific Grove",
    "state": "CA",
    "zip_code": "93950",
    "country": "US",
    "cost": "$$",
    "coords": { "lat": 36.61527, "lng": -121.91627 },
    "description": "A practical Monterey-area base near the coast—easy access, straightforward stays, low friction.",
    "fact": "A long-running coastal-lodge style option that’s more about location and ease than luxury theater.",
    "metrics": {
      "comfy_score": { "val": 8, "note": "Coastal lodge comfort." },
      "stability_index": { "val": 8, "note": "Reliable and simple." },
      "boundary_level": { "val": 8, "note": "Easy in/out." },
      "food_adventure": { "val": 6, "note": "You’re here for the peninsula." }
    }
  },
  {
    "id": "hotel-us-94103-yotel-san-francisco",
    "name": "YOTEL San Francisco",
    "type": "hotel",
    "address": "1095 Market St",
    "city": "San Francisco",
    "state": "CA",
    "zip_code": "94103",
    "country": "US",
    "cost": "$$",
    "coords": { "lat": 37.77955, "lng": -122.41351 },
    "description": "A tech-forward city stay with efficient rooms and a modern, minimal footprint.",
    "fact": "YOTEL’s brand DNA is compact “smart design” rooms built for convenience and motion.",
    "metrics": {
      "comfy_score": { "val": 7, "note": "Modern but compact." },
      "stability_index": { "val": 8, "note": "Predictable brand logic." },
      "boundary_level": { "val": 8, "note": "Self-directed flow." },
      "food_adventure": { "val": 7, "note": "SF access wins." }
    }
  },
  {
    "id": "hotel-us-94103-hotel-zetta",
    "name": "Hotel Zetta San Francisco",
    "type": "hotel",
    "address": "55 5th St",
    "city": "San Francisco",
    "state": "CA",
    "zip_code": "94103",
    "country": "US",
    "cost": "$$$",
    "coords": { "lat": 37.78376, "lng": -122.40737 },
    "description": "A playful, design-heavy boutique stay that still keeps the logistics clean and convenient.",
    "fact": "Known for a modern, creative interior identity that leans ‘fun’ without losing polish.",
    "metrics": {
      "comfy_score": { "val": 9, "note": "Boutique comfort." },
      "stability_index": { "val": 8, "note": "Consistent delivery." },
      "boundary_level": { "val": 8, "note": "Social options, not forced." },
      "food_adventure": { "val": 7, "note": "Great launchpad." }
    }
  },
  {
    "id": "hotel-us-93449-la-serena-inn",
    "name": "La Serena Inn",
    "type": "hotel",
    "address": "990 Morro Ave",
    "city": "Morro Bay",
    "state": "CA",
    "zip_code": "93449",
    "country": "US",
    "cost": "$$",
    "coords": { "lat": 35.36606, "lng": -120.84905 },
    "description": "A calm Morro Bay stay built for easy coastal mornings and zero chaos energy.",
    "fact": "A classic small-inn approach: simple comfort, great walkability, and coastal reset pacing.",
    "metrics": {
      "comfy_score": { "val": 9, "note": "Soft coastal comfort." },
      "stability_index": { "val": 9, "note": "Very steady vibe." },
      "boundary_level": { "val": 9, "note": "Quiet autonomy." },
      "food_adventure": { "val": 6, "note": "Seafood + slow days." }
    }
  },
  {
    "id": "hotel-us-90254-sea-sprite-hotel",
    "name": "Sea Sprite Hotel",
    "type": "hotel",
    "address": "1016 The Strand",
    "city": "Hermosa Beach",
    "state": "CA",
    "zip_code": "90254",
    "country": "US",
    "cost": "$$",
    "coords": { "lat": 33.8624, "lng": -118.4002 },
    "description": "A beach-forward stay that’s basically ‘wake up and you’re already on the water.’",
    "fact": "The entire appeal is Strand-side placement—this is the “beach first, everything else second” pick.",
     "metrics": {
      "comfy_score": { "val": 8, "note": "Beach comfort." },
      "stability_index": { "val": 8, "note": "Reliable coastal routine." },
      "boundary_level": { "val": 8, "note": "Easy, self-directed days." },
      "food_adventure": { "val": 6, "note": "More surf than culinary mission." }
    }
  }
]
}
